[
  {
    "id": "curated_dybsø",
    "name": "Dybsø",
    "lat": 55.134709,
    "lon": 11.817794,
    "dirs": [270, 280, 290, 300, 310, 320],
    "curated": true
  },
  {
    "id": "curated_farø",
    "name": "Farø",
    "lat": 54.940226,
    "lon": 12.001033,
    "dirs": [60, 70, 80, 90, 270, 280, 290, 300, 310],
    "curated": true
  },
  {
    "id": "curated_lynæs",
    "name": "Lynæs",
    "lat": 55.942674,
    "lon": 11.861136,
    "dirs": [140, 150, 160, 170, 180, 190, 200, 210, 220, 230, 240, 250, 260, 270, 280, 290, 300, 310, 320],
    "curated": true
  },
  {
    "id": "curated_brydegård",
    "name": "Brydegård",
    "lat": 55.183752,
    "lon": 9.986343,
    "dirs": [110, 120, 130, 140, 190, 200, 210, 220, 230, 240, 250, 260, 270, 280, 290, 300, 310, 320, 330, 340],
    "curated": true
  },
  {
    "id": "curated_vejlby_fed",
    "name": "Vejlby Fed",
    "lat": 55.515382,
    "lon": 9.866638,
    "dirs": [0, 10, 20, 30, 40, 50, 60, 70, 80, 90, 350],
    "curated": true
  }
]
